shp_name,name_key,lon,lat,dist_km_to_china,shp_code,code,name,iso_code,country_name
Afghanistan,AFGHANISTAN,66.00844729570385,33.83626679747227,3435.4832642540337,AF,004,Afghanistan,004,Afghanistan
Angola,ANGOLA,17.536985027777103,-12.29231567766601,10487.035890043688,AO,024,Angola,024,Angola
Albania,ALBANIA,20.053819149433938,41.14248218860817,7002.0196450623935,AL,008,Albania,008,Albania
Andorra,ANDORRA,1.5607562410732454,42.54132652502617,8245.842807732248,AD,020,Andorra,020,Andorra
United Arab Emirates,UNITED ARAB EMIRATES,54.30079568562682,23.90578305464822,4910.780003209409,AE,784,United Arab Emirates,784,United Arab Emirates
Argentina,ARGENTINA,-65.17819055564716,-35.3875510594879,19025.80878623521,AR,032,Argentina,032,Argentina
Armenia,ARMENIA,44.93230113049023,40.28813423535877,5067.874241739813,AM,051,Armenia,051,Armenia
Antigua and Barbuda,ANTIGUA AND BARBUDA,-61.79173246216334,17.28438023471204,13867.725264053208,AG,028,Antigua and Barbuda,028,Antigua and Barbuda
Australia,AUSTRALIA,134.49111878780138,-25.732310539055774,7599.355979746321,AU,036,Australia,036,Australia
Austria,AUSTRIA,14.13067288731312,47.58565692052205,7110.438612901656,AT,040,Austria,040,Austria
Azerbaijan,AZERBAIJAN,47.54211118671941,40.28911901307008,4852.934693741648,AZ,031,Azerbaijan,031,Azerbaijan
Burundi,BURUNDI,29.875082694422858,-3.35742533641362,8806.942813863112,BI,108,Burundi,108,Burundi
Belgium,BELGIUM,4.639960507669836,50.637461635333935,7556.199646305504,BE,,,BE,Belgium
Benin,BENIN,2.3287407308827723,9.64121668518267,10391.641084717572,BJ,204,Benin,204,Benin
Burkina Faso,BURKINA FASO,-1.7555276952566126,12.269553913794407,10561.304770107827,BF,854,Burkina Faso,854,Burkina Faso
Bangladesh,BANGLADESH,90.24199992418868,23.845677596061535,1910.3125037733041,BD,050,Bangladesh,050,Bangladesh
Bulgaria,BULGARIA,25.21751251171672,42.76852261435957,6537.627130020803,BG,100,Bulgaria,100,Bulgaria
Bahrain,BAHRAIN,50.546619426562984,26.052784490545413,5137.66010713987,BH,048,Bahrain,048,Bahrain
The Bahamas,THE BAHAMAS,-76.55125221251873,24.222809281568733,13287.396820621963,BS,,,BS,The Bahamas
Bosnia and Herzegovina,BOSNIA AND HERZEGOVINA,17.773408020341137,44.17173405647795,7023.121203903112,BA,,,BA,Bosnia and Herzegovina
Belarus,BELARUS,28.033566394959273,53.531880478346416,5959.597116226764,BY,112,Belarus,112,Belarus
Belize,BELIZE,-88.69388853141567,17.20831869152862,13921.363142192564,BZ,084,Belize,084,Belize
Bolivia,BOLIVIA,-64.68475372880847,-16.70687681055919,17543.99033241933,BO,,,BO,Bolivia
Brazil,BRAZIL,-53.092482350709375,-10.780858850930562,16342.897766253209,BR,076,Brazil,076,Brazil
Barbados,BARBADOS,-59.56121774811802,13.181053826780214,14241.630172487898,BB,052,Barbados,052,Barbados
Brunei,BRUNEI,114.72724575216546,4.516500312656145,3709.1353062995513,BN,,,BN,Brunei
Bhutan,BHUTAN,90.41038099483646,27.396215721977477,1614.8497120222846,BT,064,Bhutan,064,Bhutan
Botswana,BOTSWANA,23.798986732813933,-22.185772321029265,10606.439353646349,BW,,,BW,Botswana
Central African Republic,CENTRAL AFRICAN REPUBLIC,20.464809197122097,6.566321860159136,8988.051266639884,CF,,,CF,Central African Republic
Canada,CANADA,-98.29390430625958,61.37646280364346,8976.947578035984,CA,124,Canada,124,Canada
Switzerland,SWITZERLAND,8.215353657453974,46.79895686977877,7546.619848111111,CH,757,Switzerland,757,Switzerland
Chile,CHILE,-71.36437430919864,-37.743606601714646,19571.539823611653,CL,152,Chile,152,Chile
China,CHINA,103.81619343785562,36.45884500465525,0.0,CN,156,China,156,China
Ivory Coast,IVORY COAST,-5.569000185937823,7.627966516558926,11209.79449452629,CI,,,CI,Ivory Coast
Cameroon,CAMEROON,12.736984165340875,5.6930582058436565,9736.261547129978,CM,120,Cameroon,120,Cameroon
Democratic Republic of the Congo,DEMOCRATIC REPUBLIC OF THE CONGO,23.645113654233693,-2.8797998732308905,9324.411526030723,CD,,,CD,Democratic Republic of the Congo
Republic of Congo,REPUBLIC OF CONGO,15.218336155911805,-0.8388799890819507,9942.18120683577,CG,,,CG,Republic of Congo
Colombia,COLOMBIA,-73.08384210425315,3.9094130488501233,15523.713644490568,CO,170,Colombia,170,Colombia
Comoros,COMOROS,43.68016318654982,-11.884216211489896,8259.59009406686,KM,174,Comoros,174,Comoros
Cape Verde,CAPE VERDE,-23.96723976633632,15.936140242230156,12037.26006446356,CV,,,CV,Cape Verde
Costa Rica,COSTA RICA,-84.1935975600331,9.97330952025097,14797.224986081545,CR,188,Costa Rica,188,Costa Rica
Cuba,CUBA,-79.03521175659452,21.625298051297857,13568.230213134813,CU,192,Cuba,192,Cuba
Cyprus,CYPRUS,33.22213325342279,35.05317380710605,6234.288324578424,CY,196,Cyprus,196,Cyprus
Czech Republic,CZECH REPUBLIC,15.314103103255452,49.73244820549177,6928.976131420837,CZ,,,CZ,Czech Republic
Germany,GERMANY,10.381493867115438,51.10636343443122,7177.689096767088,DE,276,Germany,276,Germany
Djibouti,DJIBOUTI,42.566453652312475,11.750155875505797,6678.503200505497,DJ,262,Djibouti,262,Djibouti
Dominica,DOMINICA,-61.35691759205694,15.436440485357723,14054.307370390445,DM,212,Dominica,212,Dominica
Denmark,DENMARK,10.051389787511347,55.965377521555595,6958.806064544891,DK,208,Denmark,208,Denmark
Dominican Republic,DOMINICAN REPUBLIC,-70.49658653845655,18.896365870018744,13848.38100296555,DO,,,DO,Dominican Republic
Algeria,ALGERIA,2.6530913767973594,28.148889657330603,9111.006126291926,DZ,012,Algeria,012,Algeria
Ecuador,ECUADOR,-78.77228231120507,-1.4262414736101348,16116.150539784952,EC,218,Ecuador,218,Ecuador
Egypt,EGYPT,29.861208695810248,26.492919588535486,6946.364070304819,EG,818,Egypt,818,Egypt
Eritrea,ERITREA,38.85294439713829,15.35751371278818,6784.720338698481,ER,232,Eritrea,232,Eritrea
Spain,SPAIN,-3.652637016952337,40.227233701418804,8748.777534920026,ES,724,Spain,724,Spain
Estonia,ESTONIA,25.535793207468075,58.67101415039664,5981.100911255798,EE,233,Estonia,233,Estonia
Ethiopia,ETHIOPIA,39.60055103486154,8.622951736470812,7144.535657976104,ET,231,Ethiopia,231,Ethiopia
Finland,FINLAND,26.270795335953203,64.49535914684934,5832.635774848283,FI,246,Finland,246,Finland
Fiji,FIJI,163.40771360596577,-17.447562284227356,8645.477014989372,FJ,242,Fiji,242,Fiji
France,FRANCE,-2.7552211926407058,42.180106979431116,8555.744914933814,FR,251,France,251,France
Federated States of Micronesia,FEDERATED STATES OF MICRONESIA,155.2606335336868,6.967281078922652,6146.0419987832665,FM,,,FM,Federated States of Micronesia
Gabon,GABON,11.789569256833367,-0.5916559168521669,10233.299198237255,GA,266,Gabon,266,Gabon
United Kingdom,UNITED KINGDOM,-2.886951476017799,54.14704818770543,7774.570088161415,GB,826,United Kingdom,826,United Kingdom
Georgia,GEORGIA,43.50752633169953,42.168800776678104,5131.331797366753,GE,268,Georgia,268,Georgia
Ghana,GHANA,-1.216523831432959,7.9539547236762616,10813.657582799002,GH,288,Ghana,288,Ghana
Guinea,GUINEA,-10.943061266000056,10.434649046539512,11458.494240586742,GN,324,Guinea,324,Guinea
Gambia,GAMBIA,-15.397582025688187,13.449729558557188,11590.642415701632,GM,270,Gambia,270,Gambia
Guinea Bissau,GUINEA BISSAU,-14.977513754163176,12.026921903326503,11665.709081386507,GW,,,GW,Guinea Bissau
Equatorial Guinea,EQUATORIAL GUINEA,10.332885460483158,1.7069610400477155,10212.848461572547,GQ,226,Equatorial Guinea,226,Equatorial Guinea
Greece,GREECE,22.974818925497107,39.05118118244434,6878.970635557258,GR,300,Greece,300,Greece
Grenada,GRENADA,-61.65668238326516,12.15337240431256,14413.652758569198,GD,308,Grenada,308,Grenada
Guatemala,GUATEMALA,-90.36015298139735,15.69598460125718,14043.84245442351,GT,320,Guatemala,320,Guatemala
Guyana,GUYANA,-58.98011465278899,4.793461869442783,15102.437556789586,GY,328,Guyana,328,Guyana
Honduras,HONDURAS,-86.62522745581272,14.821009419805385,14224.132122775867,HN,340,Honduras,340,Honduras
Croatia,CROATIA,16.39854846740752,45.06772623465757,7077.581357883433,HR,191,Croatia,191,Croatia
Haiti,HAITI,-72.69087406294177,18.938371436632,13861.719911814522,HT,332,Haiti,332,Haiti
Hungary,HUNGARY,19.396759267358203,47.163243686593425,6769.4846610132645,HU,348,Hungary,348,Hungary
Indonesia,INDONESIA,117.27043334949758,-2.2229610031821245,4503.958265734298,ID,360,Indonesia,360,Indonesia
India,INDIA,79.26985987378251,22.754699663055593,2808.233325050454,IN,699,India,699,India
Ireland,IRELAND,-8.145044352542053,53.1782215267594,8117.418873025003,IE,372,Ireland,372,Ireland
Iran,IRAN,54.27694649996064,32.57067826243397,4519.598122822637,IR,364,Iran,364,Iran
Iraq,IRAQ,43.74497702756819,33.039803790115414,5423.781429605738,IQ,368,Iraq,368,Iraq
Iceland,ICELAND,-18.596445927816276,64.99831582047327,7705.71773957573,IS,352,Iceland,352,Iceland
Israel,ISRAEL,34.996033892956326,31.443959691714117,6249.995363086595,IL,376,Israel,376,Israel
Italy,ITALY,12.07190709272929,42.786433996367926,7503.053946413257,IT,381,Italy,381,Italy
Jamaica,JAMAICA,-77.3188104659831,18.155226388380463,13958.142371753953,JM,388,Jamaica,388,Jamaica
Jordan,JORDAN,36.77092165586202,31.24557356502806,6106.475580262666,JO,400,Jordan,400,Jordan
Japan,JAPAN,137.9783476098764,37.551177393614815,3026.2670819928826,JP,392,Japan,392,Japan
Kazakhstan,KAZAKHSTAN,67.2869992609054,48.155650642302184,3241.589955072955,KZ,398,Kazakhstan,398,Kazakhstan
Kenya,KENYA,37.82243990624767,0.5507660771289942,7845.344167811482,KE,404,Kenya,404,Kenya
Kyrgyzstan,KYRGYZSTAN,74.54166940815583,41.461918636359506,2584.273376816342,KG,417,Kyrgyzstan,417,Kyrgyzstan
Cambodia,CAMBODIA,104.90280424756881,12.71556247281363,2632.461552683479,KH,116,Cambodia,116,Cambodia
Kiribati,KIRIBATI,-51.525325360059156,0.6151857081369956,15180.258273231704,KI,296,Kiribati,296,Kiribati
Saint Kitts and Nevis,SAINT KITTS AND NEVIS,-62.69854544623184,17.27104225257184,13891.79456325387,KN,659,Saint Kitts and Nevis,659,Saint Kitts and Nevis
South Korea,SOUTH KOREA,127.81909396670315,36.373353545848396,2147.177101779987,KR,,,KR,South Korea
Kuwait,KUWAIT,47.59462351280201,29.340042081963787,5245.450580265617,KW,414,Kuwait,414,Kuwait
Laos,LAOS,103.73787188890441,18.502301612932378,1989.8941157401018,LA,,,LA,Laos
Lebanon,LEBANON,35.8799363756997,33.92035886217187,6060.894648908304,LB,422,Lebanon,422,Lebanon
Liberia,LIBERIA,-9.31986399326338,6.452232554622572,11611.337791134521,LR,430,Liberia,430,Liberia
Libya,LIBYA,18.00960512103941,27.03027797575675,7931.180995263784,LY,434,Libya,434,Libya
Saint Lucia,SAINT LUCIA,-60.970316531144164,13.902670546809237,14207.361181976179,LC,662,Saint Lucia,662,Saint Lucia
Liechtenstein,LIECHTENSTEIN,9.540900288636877,47.138206429457725,7440.3093490169485,LI,,,LI,Liechtenstein
Sri Lanka,SRI LANKA,80.70316263501755,7.615914642633479,3962.873222242355,LK,144,Sri Lanka,144,Sri Lanka
Lesotho,LESOTHO,28.228622924994475,-29.579730444231785,10754.875048527418,LS,,,LS,Lesotho
Lithuania,LITHUANIA,23.888249015739852,55.32702364118206,6168.259485504365,LT,440,Lithuania,440,Lithuania
Luxembourg,LUXEMBOURG,6.071763967273546,49.766824275810876,7517.718785149059,LU,,,LU,Luxembourg
Latvia,LATVIA,24.908622427569295,56.8518194796064,6063.337377264308,LV,428,Latvia,428,Latvia
Morocco,MOROCCO,-8.881166186983064,29.12965816838491,9911.382161122996,MA,504,Morocco,504,Morocco
Monaco,MONACO,7.398974324824814,43.73984618741341,7776.14833968699,MC,,,MC,Monaco
Moldova,MOLDOVA,28.461397116196675,47.195101390767086,6126.181445910206,MD,,,MD,Moldova
Madagascar,MADAGASCAR,46.70599831334859,-19.373167530006633,8612.880588596687,MG,450,Madagascar,450,Madagascar
Maldives,MALDIVES,73.30235478893019,3.8276562556728355,4776.163468480102,MV,462,Maldives,462,Maldives
Mexico,MEXICO,-102.53030788265107,23.94917120866616,12771.554629342567,MX,484,Mexico,484,Mexico
Marshall Islands,MARSHALL ISLANDS,170.09952781208085,7.114465335461423,7427.061879447169,MH,,,MH,Marshall Islands
Macedonia,MACEDONIA,21.683830410059933,41.595004926684744,6857.302567584756,MK,,,MK,Macedonia
Mali,MALI,-3.539079403590296,17.344162783298124,10353.746600111115,ML,466,Mali,466,Mali
Malta,MALTA,14.403754031434108,35.92102698700665,7710.73978602461,MT,470,Malta,470,Malta
Myanmar,MYANMAR,96.48928946095718,21.167669940159303,1837.9192548010521,MM,104,Myanmar,104,Myanmar
Montenegro,MONTENEGRO,19.23850000721965,42.78581817779918,6983.239379237457,ME,499,Montenegro,499,Montenegro
Mongolia,MONGOLIA,103.05628666206488,46.82580606603222,1153.1475721792501,MN,496,Mongolia,496,Mongolia
Mozambique,MOZAMBIQUE,35.538105585185704,-17.27000998724527,9309.211684348622,MZ,508,Mozambique,508,Mozambique
Mauritania,MAURITANIA,-10.343397939224419,20.256218205093393,10682.892625327506,MR,478,Mauritania,478,Mauritania
Mauritius,MAURITIUS,57.84970016476668,-20.185543869694694,7915.656539286819,MU,480,Mauritius,480,Mauritius
Malawi,MALAWI,34.28990780344179,-13.217225864686117,9118.292864991427,MW,454,Malawi,454,Malawi
Malaysia,MALAYSIA,109.69886844216772,3.792392850953133,3667.055314285065,MY,458,Malaysia,458,Malaysia
Namibia,NAMIBIA,17.21113317652142,-22.12924661994594,11151.706969498133,NA,,,NA,Namibia
Niger,NIGER,9.386033996676138,17.41846377101854,9263.954621707879,NE,562,Niger,562,Niger
Nigeria,NIGERIA,8.091239276085672,9.595314826321388,9891.394108560895,NG,566,Nigeria,566,Nigeria
Nicaragua,NICARAGUA,-85.03333837244404,12.845392598361835,14469.09179801768,NI,558,Nicaragua,558,Nicaragua
Netherlands,NETHERLANDS,5.216814209201803,52.069791654354006,7440.599150355867,NL,528,Netherlands,528,Netherlands
Norway,NORWAY,15.409599156017675,68.79427292024295,6218.726613253011,NO,579,Norway,579,Norway
Nepal,NEPAL,83.91625329139309,28.247922245679753,2077.1035208799904,NP,524,Nepal,524,Nepal
Nauru,NAURU,166.93313192931078,-0.5207828848285428,7671.8377684334155,NR,520,Nauru,520,Nauru
New Zealand,NEW ZEALAND,171.47069068212426,-41.82952216955119,11064.30796302803,NZ,554,New Zealand,554,New Zealand
Oman,OMAN,56.092656547870874,20.60180574113026,4933.322176893796,OM,512,Oman,512,Oman
Pakistan,PAKISTAN,69.34134311321002,29.94849684395951,3276.0315810780485,PK,586,Pakistan,586,Pakistan
Panama,PANAMA,-80.12129495069873,8.514556966455034,15009.08520646504,PA,591,Panama,591,Panama
Peru,PERU,-74.37806457210664,-9.154388480753173,16974.387017896664,PE,604,Peru,604,Peru
Philippines,PHILIPPINES,122.87448426558073,11.763015058093913,3337.34133636442,PH,608,Philippines,608,Philippines
Palau,PALAU,134.3480333383712,7.197635973951621,4483.994954138313,PW,585,Palau,585,Palau
Papua New Guinea,PAPUA NEW GUINEA,145.23152362072202,-6.470120595702961,6419.194879192101,PG,598,Papua New Guinea,598,Papua New Guinea
Poland,POLAND,19.39432213976469,52.12477181887398,6561.642922494018,PL,616,Poland,616,Poland
North Korea,NORTH KOREA,127.1837777789664,40.1506427446612,2078.199319408417,KP,,,KP,North Korea
Portugal,PORTUGAL,-8.590837589005956,39.58714686389936,9118.197598137263,PT,620,Portugal,620,Portugal
Paraguay,PARAGUAY,-58.398422807693635,-23.227518815638348,17765.770106550226,PY,600,Paraguay,600,Paraguay
Qatar,QATAR,51.18683129355733,25.31307459410654,5117.303347240364,QA,634,Qatar,634,Qatar
Romania,ROMANIA,24.97294185520808,45.853464097817536,6428.313883511037,RO,642,Romania,642,Romania
Russia,RUSSIA,96.69376076571884,61.984555316813925,2881.798007650871,RU,,,RU,Russia
Rwanda,RWANDA,29.919060704593225,-1.9927505278940678,8710.426797143076,RW,646,Rwanda,646,Rwanda
Saudi Arabia,SAUDI ARABIA,44.536863682313175,24.122327082588303,5774.1309787639675,SA,682,Saudi Arabia,682,Saudi Arabia
Sudan,SUDAN,29.939617811190768,15.986881156285142,7544.948305007278,SD,729,Sudan,729,Sudan
South Sudan,SOUTH SUDAN,30.301119612239113,7.283530707686406,8060.386225479207,SS,728,South Sudan,728,South Sudan
Senegal,SENEGAL,-14.471306027639171,14.367788578852945,11448.106168401919,SN,686,Senegal,686,Senegal
Singapore,SINGAPORE,103.81346765801739,1.3589210202437203,3886.195628002674,SG,702,Singapore,702,Singapore
Solomon Islands,SOLOMON ISLANDS,159.6380944628726,-8.90958320535728,7691.192329476089,SB,,,SB,Solomon Islands
Sierra Leone,SIERRA LEONE,-11.79501557832087,8.563085842860412,11665.604321784896,SL,694,Sierra Leone,694,Sierra Leone
El Salvador,EL SALVADOR,-88.87092352003097,13.73584875712482,14292.20718548809,SV,222,El Salvador,222,El Salvador
San Marino,SAN MARINO,12.44222255881246,43.93646619459673,7414.67253274004,SM,674,San Marino,674,San Marino
Somalia,SOMALIA,45.85083145550326,6.06265158597272,6768.155902702516,SO,706,Somalia,706,Somalia
Republic of Serbia,REPUBLIC OF SERBIA,20.790402471030212,44.221375921176524,6802.203127440615,RS,,,RS,Republic of Serbia
Sao Tome and Principe,SAO TOME AND PRINCIPE,6.726442874193855,0.444260037724772,10618.432058332977,ST,678,Sao Tome and Principe,678,Sao Tome and Principe
Suriname,SURINAME,-55.911071360777015,4.131244979145154,15045.642086461436,SR,740,Suriname,740,Suriname
Slovakia,SLOVAKIA,19.480382971203493,48.704935301709746,6696.660494579873,SK,703,Slovakia,703,Slovakia
Slovenia,SLOVENIA,14.808089944182488,46.11611124592458,7137.004818374644,SI,705,Slovenia,705,Slovenia
Sweden,SWEDEN,16.75446642897457,62.77709986246919,6333.044353885147,SE,752,Sweden,752,Sweden
Swaziland,SWAZILAND,31.480024103009168,-26.561914349027724,10296.127434715183,SZ,,,SZ,Swaziland
Seychelles,SEYCHELLES,52.06229190040361,-6.489990483711142,7184.656430974085,SC,690,Seychelles,690,Seychelles
Syria,SYRIA,38.50456411198158,35.02300170486042,5791.249876672271,SY,760,Syria,760,Syria
Chad,CHAD,18.646251114002148,15.333078105061873,8589.887831447966,TD,148,Chad,148,Chad
Togo,TOGO,0.9622715996452033,8.526788206050872,10585.892616295796,TG,768,Togo,768,Togo
Thailand,THAILAND,101.003333388371,15.114399775661244,2381.248144236822,TH,764,Thailand,764,Thailand
Tajikistan,TAJIKISTAN,71.01583430577865,38.52988565221312,2894.34501943589,TJ,762,Tajikistan,762,Tajikistan
Turkmenistan,TURKMENISTAN,59.37596073562031,39.115933902448695,3886.586453330767,TM,795,Turkmenistan,795,Turkmenistan
Timor-Leste,TIMOR-LESTE,125.85107557065517,-8.823778733774388,5517.169490318576,TL,626,Timor-Leste,626,Timor-Leste
Tonga,TONGA,-174.86851227248366,-20.06655973656384,10572.9303229329,TO,776,Tonga,776,Tonga
Trinidad and Tobago,TRINIDAD AND TOBAGO,-61.2584498392754,10.468829856764794,14581.635973852068,TT,780,Trinidad and Tobago,780,Trinidad and Tobago
Tunisia,TUNISIA,9.554626245563423,34.11940522293009,8191.934546520175,TN,788,Tunisia,788,Tunisia
Turkey,TURKEY,35.167239386748356,39.06108059786029,5907.087520144011,TR,792,Turkey,792,Turkey
Tuvalu,TUVALU,178.52035316254916,-7.759069095631,9174.375795070177,TV,798,Tuvalu,798,Tuvalu
United Republic of Tanzania,UNITED REPUBLIC OF TANZANIA,34.81358642052747,-6.275097481093783,8581.217890610413,TZ,,,TZ,United Republic of Tanzania
Uganda,UGANDA,32.367039852724986,1.2756911925086325,8273.888785729954,UG,800,Uganda,800,Uganda
Ukraine,UKRAINE,31.385747565696406,48.997369075041995,5860.081544934815,UA,804,Ukraine,804,Ukraine
Uruguay,URUGUAY,-56.01715506612534,-32.79821075366311,18135.866937018618,UY,858,Uruguay,858,Uruguay
United States of America,UNITED STATES OF AMERICA,-112.49572618385001,45.68811346403755,10207.195480824494,US,,,US,United States of America
Uzbekistan,UZBEKISTAN,63.13990881750675,41.756035884678,3533.566385751094,UZ,860,Uzbekistan,860,Uzbekistan
Saint Vincent and the Grenadines,SAINT VINCENT AND THE GRENADINES,-61.20335326632455,13.216215919317548,14287.27527613074,VC,670,Saint Vincent and the Grenadines,670,Saint Vincent and the Grenadines
Venezuela,VENEZUELA,-66.16884026306408,7.1277315369813214,15068.42977696271,VE,862,Venezuela,862,Venezuela
Vietnam,VIETNAM,106.30093518470343,16.642182929451664,2209.421175877622,VN,,,VN,Vietnam
Vanuatu,VANUATU,167.70084414094208,-16.201267919694928,8881.480193944895,VU,548,Vanuatu,548,Vanuatu
Samoa,SAMOA,-172.16124929903535,-13.754595654027652,10386.153547760492,WS,882,Samoa,882,Samoa
Yemen,YEMEN,47.59060190406185,15.90542133353556,5970.421682260669,YE,887,Yemen,887,Yemen
South Africa,SOUTH AFRICA,25.087364435237827,-29.001032178253663,10957.877939899787,ZA,,,ZA,South Africa
Zambia,ZAMBIA,27.774212334796744,-13.460110018365613,9681.112605091252,ZM,894,Zambia,894,Zambia
Zimbabwe,ZIMBABWE,29.851884620576783,-19.00253671000191,9892.710368185846,ZW,716,Zimbabwe,716,Zimbabwe
